{
  "farmaci": [
    {
      "id": 1,
      "name": "Farmaci DITE e NATE",
      "address": "Rr. Luigj Gurakuqi",
      "lat": 41.3278034,
      "lng": 19.8190184
    },
    {
      "id": 2,
      "name": "Farmaci B&B",
      "address": "Rr. Kavajes",
      "lat": 41.3282757,
      "lng": 19.8108836
    },
    {
      "id": 3,
      "name": "Farmaci Daja",
      "address": "Rr. A. Z. Cajupi",
      "lat": 41.3213721,
      "lng": 19.8124038
    },
    {
      "id": 4,
      "name": "Farmaci Marjeta",
      "address": " Rr. Kavajes",
      "lat": 41.3256366,
      "lng": 19.805837
    }
  ],
  "qsh": [
    {
      "id": 1,
      "name": "QSH 1",
      "address": "Bulevardi \"Zhan d\'Ark\"",
      "lat": 41.3249335,
      "lng": 19.8203699
    },
    {
      "id": 2,
      "name": "QSH 2",
      "address": "Rr. Kavajes",
      "lat": 41.327896,
      "lng": 19.7661116
    },
    {
      "id": 3,
      "name": "QSH 3",
      "address": "Bulevardi Zogu I",
      "lat": 41.330817,
      "lng": 19.817522
    },
    {
      "id": 4,
      "name": "QSH 4",
      "address": "Rr. Dritan Hoxha",
      "lat": 41.334104,
      "lng": 19.802430
    },
    {
      "id": 5,
      "name": "QSH 5",
      "address": " Rr. Arkitekt Kasemi",
      "lat": 41.333624,
      "lng": 19.833582
    }
  ]
}
